City_ID,City,Country,Lat,Lng,Max Temp,Humidity,Cloudiness,Wind Speed,Date
0,Fale old settlement,TK,-9.3852,-171.2468,29.02,75,46,4.88,1744681482
1,Saint Paul Harbor,US,57.79,-152.4072,6.73,57,75,6.69,1744681352
2,Nhamundá,BR,-2.1861,-56.7131,23.74,93,75,0.96,1744681482
3,Klyuchi,RU,52.2667,79.1667,8.16,63,100,3.54,1744681482
4,Ålesund,NO,62.4723,6.1549,9.08,61,75,4.63,1744681483
5,Vadsø,NO,70.0744,29.7487,-0.91,80,75,7.2,1744681483
6,Adamstown,PN,-25.066,-130.1015,24.33,83,99,4.75,1744681483
7,Albany,US,42.6001,-73.9662,12.16,60,100,2.02,1744681483
8,Lib,MH,8.3122,167.3766,27.57,79,77,7.93,1744681483
9,Qaraūyl,KZ,48.9451,79.255,5.97,60,100,3.19,1744681483
10,La Passe,FR,45.5549,-0.8967,10.71,88,4,7.16,1744681483
11,Edinburgh of the Seven Seas,SH,-37.0676,-12.3116,18.79,97,100,10.28,1744681484
12,Meadow Lakes,US,61.6247,-149.6011,8.54,45,75,3.6,1744681484
13,Waitangi,NZ,-43.9535,-176.5597,13.79,65,100,3.58,1744681484
14,Port-aux-Français,TF,-49.35,70.2167,9.02,94,100,12.18,1744681484
15,Grand-Lahou,CI,5.1367,-5.0242,26.39,90,82,3.88,1744681484
16,Petropavlovsk-Kamchatskiy,RU,53.0452,158.6483,16.33,25,0,5.0,1744681484
17,Labytnangi,RU,66.6572,66.4183,-7.12,94,99,3.6,1744681484
18,Bathsheba,BB,13.2167,-59.5167,26.34,83,40,6.17,1744681485
19,Vilyuchinsk,RU,52.9306,158.4028,17.15,74,73,2.36,1744681485
20,Bilibino,RU,68.0546,166.4372,-6.0,85,95,1.33,1744681485
21,Ambovombe,MG,-25.1667,46.0833,23.81,82,2,1.9,1744681485
22,Alta,NO,69.9689,23.2717,-0.41,86,40,4.63,1744681485
23,Berdigestyakh,RU,62.0989,126.6992,-5.28,81,100,4.88,1744681485
24,Hobyo,SO,5.3505,48.5268,28.46,71,99,5.69,1744681485
25,El Calafate,AR,-50.3408,-72.2768,8.04,91,100,1.24,1744681485
26,Cole Harbour,CA,44.6724,-63.4751,3.29,86,100,10.29,1744681486
27,Urangan,AU,-25.3,152.9,24.34,62,0,10.02,1744681486
28,Ribeira Grande,PT,38.5167,-28.7,12.65,81,11,2.68,1744681486
29,Yellowknife,CA,62.456,-114.3525,3.29,60,100,5.66,1744681486
30,Inhambane,MZ,-23.865,35.3833,24.22,85,0,3.44,1744681486
31,Talnakh,RU,69.4865,88.3972,-12.77,93,100,2.01,1744681486
32,Luganville,VU,-15.5333,167.1667,30.24,72,89,1.38,1744681486
33,Ilulissat,GL,69.2167,-51.1,-5.99,79,100,0.0,1744681487
34,Ust-Nera,RU,64.5667,143.2,-4.22,86,100,2.22,1744681487
35,Bonawon,PH,9.134,122.9193,30.05,67,45,1.6,1744681487
36,Zhosaly,KZ,45.4878,64.0781,11.68,51,0,3.75,1744681487
37,Nambucca Heads,AU,-30.65,153.0,21.23,83,14,8.47,1744681487
38,Arrondissement de Mamers,FR,48.3333,0.25,11.0,95,100,2.51,1744681488
39,Puerto Natales,CL,-51.7236,-72.4875,4.8,90,93,0.63,1744681488
40,Santiago de Cao,PE,-7.9589,-79.2392,18.07,88,100,3.6,1744681488
41,Anadyr,RU,64.75,177.4833,-11.72,79,0,2.0,1744681488
42,Vernon,CA,50.2581,-119.2691,17.74,27,100,1.03,1744681488
43,New Norfolk,AU,-42.7826,147.0587,16.07,50,90,1.46,1744681488
44,Port Alfred,ZA,-33.5906,26.891,11.77,84,32,0.89,1744681489
45,Grytviken,GS,-54.2811,-36.5092,1.25,77,100,4.97,1744681489
46,Mount Gambier,AU,-37.8333,140.7667,29.2,28,90,3.12,1744681490
47,Laguna,US,38.421,-121.4238,30.08,16,0,0.0,1744681490
48,Copiapó,CL,-27.3667,-70.3333,16.75,71,0,0.61,1744681490
49,San Antonio de Palé,GQ,-1.4014,5.6325,27.21,85,92,3.68,1744681550
50,Starozhilovo,RU,54.2254,39.916,6.12,90,14,3.7,1744681550
51,Avarua,CK,-21.2078,-159.775,26.23,74,81,7.9,1744681550
52,Port Mathurin,MU,-19.6833,63.4167,26.6,78,18,6.42,1744681550
53,Bethel,US,41.3712,-73.414,12.46,57,92,0.89,1744681551
54,Badger,US,64.8,-147.5333,3.32,80,100,6.17,1744681551
55,Santa Ana,US,33.7456,-117.8678,18.88,67,40,5.14,1744681472
56,Zamora,EC,-4.0692,-78.9567,19.76,99,100,0.52,1744681551
57,Aitape,PG,-3.1374,142.3475,29.73,67,29,3.04,1744681551
58,Ji’an,CN,27.1172,114.9793,24.02,41,6,1.78,1744681551
59,Khandyga,RU,62.6667,135.6,-3.73,83,100,2.53,1744681551
60,Lorengau,PG,-2.0226,147.2712,29.13,73,96,3.78,1744681552
61,Jamestown,US,42.097,-79.2353,16.8,59,75,5.14,1744681552
62,Galveston,US,29.3669,-94.9669,23.34,77,0,3.6,1744681552
63,Aasiaat,GL,68.7098,-52.8699,-13.75,93,90,3.12,1744681552
64,Udachny,RU,66.4167,112.4,-5.64,88,100,6.53,1744681552
65,Nizhneangarsk,RU,55.7833,109.55,3.66,92,100,0.52,1744681552
66,Constanța,RO,44.1833,28.65,5.39,94,42,5.16,1744681492
67,Katsuura,JP,35.1333,140.3,16.17,74,50,13.5,1744681553
68,Al-Fashir,SD,13.6279,25.3494,20.51,17,4,4.43,1744681553
69,Lospalos,TL,-8.5186,127.0025,29.55,61,99,0.49,1744681553
70,Cockburn Town,TC,21.4612,-71.1419,24.77,67,17,8.47,1744681553
71,Itanhém,BR,-17.1664,-40.33,24.06,77,100,1.75,1744681553
72,Rongelap,MH,11.1635,166.8941,27.4,78,78,7.1,1744681553
73,Sinabang,ID,2.4803,96.3801,27.86,80,100,1.71,1744681553
74,Illushi,NG,6.6667,6.6308,26.23,86,88,1.69,1744681553
75,George Town,MY,5.4112,100.3354,29.97,83,20,1.54,1744681483
76,Daru,PG,-9.0763,143.2092,25.46,92,100,1.99,1744681554
77,Aykhal,RU,66.0,111.5,-6.08,90,100,6.69,1744681554
78,Kiunga,PG,-6.1219,141.2906,30.51,63,96,1.29,1744681554
79,Shubarshi,KZ,48.5872,57.1869,3.94,75,0,3.1,1744681554
80,Hermanus,ZA,-34.4187,19.2345,15.1,80,65,2.36,1744681554
81,Suva,FJ,-18.1416,178.4415,28.71,84,75,3.09,1744681554
82,Thompson,CA,55.7435,-97.8558,-1.91,64,75,5.14,1744681555
83,Invercargill,NZ,-46.4,168.35,11.68,68,19,3.13,1744681555
84,St. John's,CA,47.5649,-52.7093,7.66,98,100,5.14,1744681555
85,São João da Barra,BR,-21.6403,-41.0511,23.06,86,63,3.35,1744681555
86,Kanata,CA,45.3159,-75.8985,12.63,69,100,4.12,1744681555
87,Hamilton,US,39.1834,-84.5333,15.91,78,100,3.09,1744681413
88,Mamuju,ID,-2.6748,118.8885,28.17,77,95,2.22,1744681555
89,Uturoa,PF,-16.7333,-151.4333,27.49,78,21,6.41,1744681556
90,Atafu Village,TK,-8.5421,-172.5159,28.97,75,42,5.31,1744681556
91,Afaahiti,PF,-17.75,-149.2833,26.18,78,52,6.71,1744681556
92,Fort Bragg,US,35.139,-79.006,25.85,44,0,5.66,1744681556
93,Muravlenko,RU,63.7898,74.523,-8.17,89,22,7.35,1744681556
94,Kununurra,AU,-15.7667,128.7333,32.99,52,92,2.57,1744681556
95,Blackmans Bay,AU,-43.0167,147.3167,15.41,58,99,1.79,1744681556
96,Belmonte,BR,-15.8631,-38.8828,24.93,82,10,1.79,1744681556
97,Lihue,US,21.9789,-159.3672,26.77,65,20,5.66,1744681557
98,Alotau,PG,-10.3069,150.4462,28.13,87,85,0.8,1744681617
99,Antalaha,MG,-14.9003,50.2788,24.7,84,79,2.97,1744681617
100,Arica,CL,-18.475,-70.3042,19.13,72,100,1.03,1744681617
101,Stanley,GB,54.868,-1.6985,8.07,90,0,0.51,1744681617
102,Dolores,AR,-36.3132,-57.6792,9.12,86,11,3.77,1744681618
103,Muskegon,US,43.3,-86.1334,8.79,66,75,7.2,1744681618
104,Punta Arenas,CL,-53.15,-70.9167,5.06,93,0,4.63,1744681618
105,Antsiranana,MG,-12.2787,49.2917,24.79,88,77,3.85,1744681618
106,Tura,IN,25.5198,90.2201,24.89,57,100,2.29,1744681618
107,Mindszent,HU,46.5236,20.1904,12.21,77,100,5.96,1744681618
108,Inarajan Village,GU,13.2736,144.7484,30.78,84,38,7.38,1744681618
109,Chyhyryn,UA,49.0838,32.6555,5.57,72,22,3.08,1744681619
110,Olonkinbyen,SJ,70.9221,-8.7187,-4.94,80,100,7.09,1744681619
111,Sangmélima,CM,2.9333,11.9833,19.69,98,100,0.4,1744681619
112,Ciudad Juárez,MX,31.7333,-106.4833,29.45,11,75,5.14,1744680888
113,Bo`ka,UZ,40.8108,69.1986,17.64,69,46,1.86,1744681619
114,Vatutinki,RU,55.4983,37.3325,8.43,81,0,3.0,1744681619
115,Bredasdorp,ZA,-34.5322,20.0403,13.96,85,53,0.68,1744681620
116,Relizane,DZ,35.7373,0.556,15.57,70,72,3.87,1744681620
117,Padang,ID,-0.9492,100.3543,28.03,75,100,0.8,1744681620
118,Merca,SO,1.7159,44.7717,27.84,77,69,3.76,1744681620
119,Pisco,PE,-13.7,-76.2167,21.68,77,0,7.72,1744681620
120,Las Khorey,SO,11.1595,48.1967,28.38,81,15,1.87,1744681620
121,Petukhovo,RU,55.0692,67.9019,1.79,93,100,5.97,1744681620
122,College,US,64.8569,-147.8028,2.99,80,100,6.17,1744681621
123,Zouérat,MR,22.7187,-12.4521,20.6,36,44,5.89,1744681621
124,Kapuskasing,CA,49.4169,-82.4331,5.05,93,100,4.63,1744681621
125,Hawaiian Paradise Park,US,19.5933,-154.9731,25.01,80,100,0.45,1744681621
126,Codrington,AU,-38.2667,141.9667,24.66,42,100,3.27,1744681621
127,Kumul,CN,42.8,93.45,21.08,16,100,0.82,1744681621
128,Bodø,NO,67.28,14.405,3.02,78,40,6.69,1744681621
129,Andergrove,AU,-21.0833,149.1833,24.5,75,66,9.54,1744681621
130,Trujillo,PE,-8.116,-79.03,17.98,88,100,3.6,1744681622
131,Lockwood,US,45.8191,-108.4149,13.94,22,0,1.54,1744681622
132,Saynshand,MN,44.8824,110.1163,16.69,23,100,4.3,1744681622
133,Lüderitz,NA,-26.6481,15.1594,15.36,76,22,9.43,1744681622
134,Vorgashor,RU,67.5833,63.95,-4.05,96,100,5.85,1744681622
135,Lebu,CL,-37.6167,-73.65,11.56,91,9,1.31,1744681622
136,Nikolayevsk-on-Amur,RU,53.1406,140.73,8.15,76,95,1.89,1744681622
137,Forster,AU,-32.1667,152.5167,21.63,65,95,8.11,1744681623
138,Al Khārijah,EG,25.4514,30.5464,15.95,31,0,3.99,1744681623
139,Arrondissement de Saint-Denis,FR,48.9167,2.3333,14.88,78,0,4.12,1744681623
140,Aleysk,RU,52.4926,82.7822,6.44,69,100,4.65,1744681623
141,Iqaluit,CA,63.7506,-68.5145,-16.15,78,20,4.63,1744681623
142,Nagqu Prefecture,CN,31.5,92.0,-0.53,58,100,0.88,1744681623
143,Magadan,RU,59.5667,150.8,-0.03,99,100,2.32,1744681623
144,Kantharalak,TH,14.6406,104.6499,28.27,65,100,1.77,1744681624
145,Carnot,CF,4.9409,15.8665,22.8,80,98,0.69,1744681624
146,Papatowai,NZ,-46.5619,169.4708,11.12,60,43,4.07,1744681624
147,Selfoss,IS,63.9331,-20.9971,1.42,74,66,4.26,1744681684
148,Linxia Chengguanzhen,CN,35.6003,103.2064,15.97,17,100,1.51,1744681684
149,Carnarvon,AU,-24.8667,113.6333,25.33,59,0,7.69,1744681684
150,Port Blair,IN,11.6667,92.75,29.02,84,40,1.54,1744681684
151,Venice,US,27.0998,-82.4543,23.32,77,0,0.45,1744681478
152,Kavaratti,IN,10.5669,72.642,29.26,72,100,5.23,1744681685
153,Sikasso,ML,10.9167,-7.0,27.63,61,100,0.48,1744681685
154,Bābai,IN,22.7,77.9333,29.27,29,4,2.09,1744681685
155,La Sarre,CA,48.8002,-79.1996,3.07,99,100,3.55,1744681685
156,Kingston,JM,17.997,-76.7936,27.53,74,75,3.09,1744681560
157,Mana,GF,5.6592,-53.7767,25.47,87,100,3.76,1744681685
158,Nova Sintra,CV,14.8667,-24.7167,21.69,78,33,10.27,1744681685
159,Puerto Ayora,EC,-0.7393,-90.3518,26.42,96,98,2.24,1744681686
160,Isafjordur,IS,66.0755,-23.124,-1.98,96,100,15.53,1744681686
161,Nova Viçosa,BR,-17.8919,-39.3719,25.24,79,65,2.75,1744681686
162,Christchurch,NZ,-43.5333,172.6333,14.41,71,100,4.47,1744681686
163,Khovd,MN,48.0056,91.6419,13.77,26,10,5.74,1744681686
164,Wailua Homesteads,US,22.0669,-159.378,26.44,84,20,5.66,1744681686
165,Juneau,US,58.3019,-134.4197,5.0,81,100,3.09,1744681686
166,Naryan-Mar,RU,67.6713,53.087,1.03,99,100,7.31,1744681687
167,Qarazhal,KZ,48.0078,70.7903,7.63,65,8,3.33,1744681687
168,Lata,PT,40.1629,-8.3327,6.81,97,96,1.31,1744681687
169,Shenjiamen,CN,29.9576,122.298,20.23,49,0,4.09,1744681687
170,Zhangaözen,KZ,43.3,52.8,14.51,53,100,10.94,1744681687
171,Okhotsk,RU,59.3833,143.3,-0.01,94,99,2.8,1744681687
172,Geraldton,AU,-28.7667,114.6,24.23,53,1,9.26,1744681687
173,West Island,CC,-12.1568,96.8225,28.99,79,45,5.14,1744681688
174,Lagi,VN,10.6667,107.7833,29.49,66,100,3.91,1744681688
175,Kingscliff,AU,-28.2667,153.5667,24.97,65,40,6.17,1744681688
176,Al Qūşīyah,EG,27.4402,30.8184,15.78,44,0,3.99,1744681688
177,Bikenibeu Village,KI,1.3673,173.1241,30.98,79,40,4.12,1744681688
178,Ibarreta,AR,-25.2144,-59.8585,20.25,76,27,1.33,1744681689
179,Sitka,US,57.0531,-135.33,6.94,70,75,8.23,1744681686
180,Ardakān,IR,32.31,54.0175,22.16,33,97,3.62,1744681689
181,Mitú,CO,1.1983,-70.1733,21.84,97,100,0.37,1744681689
182,Queenstown,ZA,-31.8976,26.8753,10.63,85,100,1.75,1744681689
183,Dakhla,EH,23.6848,-15.958,19.18,79,81,10.96,1744681689
184,Gaimán,AR,-43.2897,-65.4929,9.11,89,100,5.58,1744681689
185,Tsiombe,MG,-25.3,45.4833,23.51,87,2,1.52,1744681689
186,Kill Devil Hills,US,36.0307,-75.676,19.43,74,0,5.14,1744681690
187,Mukalla,YE,14.5425,49.1242,26.51,77,36,2.84,1744681690
188,Saipan,MP,15.1355,145.701,29.39,82,100,6.17,1744681690
189,Carolina Beach,US,34.0352,-77.8936,19.49,74,1,8.01,1744681690
190,Haiku-Pauwela,US,20.9219,-156.3051,26.69,73,16,11.18,1744681690
191,Kannus,FI,63.9,23.9,0.24,82,0,3.5,1744681691
192,Vilhena,BR,-12.7406,-60.1458,21.05,96,100,0.92,1744681691
193,Ath Thawrah,SY,35.8469,38.5443,8.77,71,99,7.94,1744681691
194,Iskateley,RU,67.6803,53.1512,1.02,99,100,7.33,1744681691
195,Tucumã,BR,-0.1833,-50.05,24.62,92,100,2.12,1744681751
196,Ailuk,MH,10.2197,169.9797,27.34,79,95,8.08,1744681751
197,Bardai,NG,11.65,7.2333,23.88,13,7,3.21,1744681751
198,Placetas,CU,22.3119,-79.6533,22.12,68,0,4.94,1744681752
199,Tôlanaro,MG,-25.0319,46.9987,23.49,89,6,3.13,1744681752
200,Howard Springs,AU,-12.497,131.047,30.55,85,93,3.92,1744681752
201,Flying Fish Cove,CX,-10.4217,105.6791,28.82,78,40,4.63,1744681752
202,Ghadames,LY,30.1337,9.5007,23.12,40,0,2.04,1744681752
203,Keflavik,IS,64.0049,-22.5624,3.24,75,75,9.26,1744681753
204,Ulsteinvik,NO,62.3432,5.8487,10.5,58,95,3.87,1744681753
205,Chibougamau,CA,49.9168,-74.3659,3.79,87,100,3.6,1744681753
206,Egilsstadir,IS,65.2653,-14.3948,-1.05,93,75,2.06,1744681753
207,Margaret River,AU,-33.95,115.0667,18.13,52,100,2.18,1744681679
208,Al Ghayzah,YE,16.2079,52.176,26.35,83,11,3.36,1744681753
209,Uray,RU,60.1247,64.7758,-0.22,81,100,5.0,1744681754
210,Ormara,PK,25.2088,64.6357,25.87,89,5,6.68,1744681754
211,Ulladulla,AU,-35.35,150.4667,20.29,57,94,4.2,1744681754
212,Kargasok,RU,59.0556,80.8572,-2.79,58,8,3.6,1744681754
213,Gifford,US,27.6753,-80.4092,23.02,77,0,4.63,1744681754
214,North Bend,US,43.4065,-124.2243,15.95,55,0,7.72,1744681754
215,Muswellbrook,AU,-32.2667,150.9,20.37,63,99,4.45,1744681754
216,Tiksi,RU,71.6872,128.8694,-11.45,86,54,1.21,1744681754
217,Mauganj,IN,24.6833,81.8833,27.2,38,2,3.15,1744681755
218,Sarakhs,IR,36.5449,61.1577,22.53,53,100,3.85,1744681755
219,Pangody,RU,65.85,74.4859,-6.47,90,100,7.21,1744681755
220,Kincardine,GB,56.0667,-3.7167,6.15,92,100,1.47,1744681755
221,Būrabay,KZ,53.0838,70.3138,7.24,72,100,1.8,1744681755
222,Yuzhno-Kurilsk,RU,44.0306,145.8556,4.19,98,100,4.18,1744681755
223,Ancud,CL,-41.8697,-73.8203,9.99,95,21,2.49,1744681755
224,Mossamedes,AO,-15.1961,12.1522,23.35,83,7,2.4,1744681756
225,Ban Saladan,TH,7.6134,99.0365,28.61,80,60,3.57,1744681756
226,Ushuaia,AR,-54.8,-68.3,3.81,87,0,1.03,1744681756
227,Garhwa,IN,24.1833,83.8167,26.8,39,24,0.96,1744681756
228,Wynyard,AU,-41.0,145.7167,15.66,64,99,8.49,1744681756
229,Kruisfontein,ZA,-34.0033,24.7314,11.67,76,0,3.46,1744681756
230,Kourou,GF,5.1552,-52.6478,24.54,92,74,2.28,1744681756
231,Mildura,AU,-34.2,142.15,32.26,27,7,2.72,1744681756
232,Sur,OM,22.5667,59.5289,28.02,49,1,3.72,1744681757
233,Nago,JP,26.5881,127.9761,21.91,47,2,5.0,1744681757
234,Kuta,ID,-8.7233,115.1723,29.97,84,20,1.54,1744681757
235,Utrik,MH,11.2278,169.8474,27.24,77,96,7.33,1744681757
236,Ishigaki,JP,24.3448,124.1572,24.07,73,75,6.69,1744681757
237,Nantucket,US,41.2835,-70.0995,7.3,81,0,5.14,1744681757
238,Bindlach,DE,49.9817,11.6139,13.14,90,36,3.05,1744681757
239,Yelizovo,RU,53.1873,158.3805,17.08,25,0,5.0,1744681758
240,Tabou,CI,4.423,-7.3528,26.43,86,100,2.92,1744681758
241,Chonchi,CL,-42.6128,-73.8092,9.51,98,15,0.91,1744681758
242,Nemuro,JP,43.3236,145.575,4.26,96,100,6.51,1744681758
243,Khāsh,IR,28.2211,61.2158,21.5,20,17,1.35,1744681818
244,Richards Bay,ZA,-28.783,32.0377,21.59,85,100,4.46,1744681818
245,Port Elizabeth,ZA,-33.918,25.5701,16.29,73,0,5.66,1744681818
246,Makamba,BI,-4.1348,29.804,15.95,91,82,1.01,1744681819
247,Cologne,DE,50.9333,6.95,11.65,72,0,1.54,1744681819
248,Kwekwe,ZW,-18.9281,29.8149,16.4,85,5,0.97,1744681819
249,Machico,PT,32.7,-16.7667,17.06,73,40,4.12,1744681819
250,Bowen,AU,-20.0167,148.2333,25.56,72,70,7.76,1744681819
251,Itaituba,BR,-4.2761,-55.9836,22.16,99,100,0.84,1744681819
252,Vanimo,PG,-2.6741,141.3028,29.34,76,94,2.44,1744681820
253,Salalah,OM,17.0151,54.0924,28.05,83,40,2.06,1744681820
254,Tynda,RU,55.1667,124.7167,-2.26,63,4,3.97,1744681820
255,Mahanje,TZ,-9.9333,35.3333,17.38,98,100,0.27,1744681820
256,Xigazê,CN,29.25,88.8833,4.82,55,99,0.34,1744681820
257,Bam,IR,29.106,58.357,27.43,11,100,3.27,1744681820
258,Simanggang,MY,1.2472,111.4528,25.01,94,40,2.24,1744681820
259,Hegang,CN,47.4,130.3667,6.63,54,100,5.81,1744681821
260,Morinville,CA,53.8001,-113.652,14.89,33,100,3.6,1744681821
261,Wotho,MH,10.1657,166.0102,27.46,78,80,7.59,1744681821
262,Dagomys,RU,43.6703,39.6689,7.61,73,100,1.61,1744681821
263,Central,US,30.5544,-91.0368,22.01,79,0,4.12,1744681821
264,San Pedro Pochutla,MX,15.7333,-96.4667,28.17,57,48,1.6,1744681821
265,Kalachinsk,RU,55.0529,74.5751,2.81,88,100,7.33,1744681821
266,Coquimbo,CL,-29.9533,-71.3436,14.85,89,100,3.09,1744681822
267,Dunedin,NZ,-45.8742,170.5036,10.87,63,88,4.41,1744681822
268,Dukhān,QA,25.4297,50.7858,24.75,58,94,12.75,1744681822
269,San Luis de la Loma,MX,17.2706,-100.8939,24.79,67,82,2.52,1744681822
270,Elverum,NO,60.8819,11.5623,2.73,86,42,0.93,1744681823
271,Kibiti,TZ,-7.7218,38.9375,21.82,99,100,1.41,1744681823
272,Sampit,ID,-2.5333,112.95,27.71,81,100,1.1,1744681823
273,Kerikeri,NZ,-35.2268,173.9474,20.51,92,100,5.22,1744681823
274,Mount Pearl,CA,47.5166,-52.7813,7.19,98,100,5.14,1744681823
275,Sosnogorsk,RU,63.6023,53.8817,2.32,94,100,5.31,1744681824
276,Ryōtsu-minato,JP,38.0833,138.4333,9.4,80,88,5.86,1744681824
277,Bambanglipuro,ID,-7.95,110.2833,29.51,65,97,1.36,1744681824
278,Warman,CA,52.3168,-106.5679,10.95,25,40,2.57,1744681824
279,Eyl,SO,7.9803,49.8164,27.95,75,99,3.01,1744681824
280,Pechora,RU,65.1472,57.2244,1.59,97,100,6.43,1744681824
281,Bahía de Kino,MX,28.8333,-111.9333,24.55,44,57,2.65,1744681824
282,Arkhangelsk,RU,64.5401,40.5433,7.06,76,75,5.0,1744681825
283,Arrondissement du Havre,FR,49.5833,0.3333,11.87,94,100,3.6,1744681825
284,Enewetak,MH,11.3474,162.3373,27.49,76,100,8.1,1744681825
285,Qaqortoq,GL,60.7167,-46.0333,-6.03,78,1,3.44,1744681825
286,Zilair,RU,52.2332,57.4392,0.15,88,6,2.3,1744681825
287,Villanueva,HN,15.3167,-88.0,25.55,73,20,3.6,1744681825
288,Mushie,CD,-3.0167,16.9,23.7,84,53,0.59,1744681826
289,Gazli,UZ,40.1333,63.45,19.92,29,90,9.38,1744681826
290,Concepción,CL,-36.827,-73.0498,13.89,94,75,2.06,1744681886
291,Hoemul-li,KP,41.4339,129.67,9.92,50,70,3.06,1744681886
292,Goya,AR,-29.14,-59.2626,14.85,77,0,2.02,1744681886
293,Formosa do Rio Preto,BR,-11.0483,-45.1931,22.9,79,11,1.59,1744681886
294,Mawu,CN,34.4307,104.9176,13.65,24,100,1.95,1744681887
295,Kipushi,CD,-11.7667,27.2333,15.69,98,99,1.74,1744681887
296,Puerto Baquerizo Moreno,EC,-0.9,-89.6,25.76,85,99,3.78,1744681887
297,Nelson Bay,AU,-32.7167,152.15,22.27,68,99,6.26,1744681887
298,Hasaki,JP,35.7333,140.8333,17.16,64,29,12.98,1744681634
299,Biltine,TD,14.5333,20.9167,25.88,12,0,8.99,1744681887
300,Kabalo,CD,-6.05,26.9167,20.37,95,8,1.77,1744681887
301,Beïnamar,TD,8.6698,15.3813,27.69,46,39,1.61,1744681888
302,Pacific Grove,US,36.6177,-121.9166,14.67,90,40,5.14,1744681888
303,Bagua Grande,PE,-5.7561,-78.4411,24.07,83,100,2.09,1744681888
304,Anloga,GH,5.7947,0.8973,27.95,84,100,5.93,1744681888
305,Whitehorse,CA,60.7161,-135.0538,4.45,38,75,6.17,1744681888
306,Faaborg,DK,55.0951,10.2423,7.7,87,99,4.54,1744681888
307,Casilda,AR,-33.0442,-61.1681,17.1,69,71,3.67,1744681888
308,Klaksvík,FO,62.2266,-6.589,6.73,82,100,7.18,1744681889
309,Weno,FM,7.4515,151.8468,31.97,66,40,3.09,1744681889
310,Hilo,US,19.7297,-155.09,25.13,81,100,0.0,1744681889
311,Bubaque,GW,11.2833,-15.8333,23.78,73,16,4.84,1744681889
312,Alofi,NU,-19.0595,-169.9187,29.94,74,40,6.69,1744681719
313,Koné,NC,-21.0595,164.8658,29.1,74,47,3.51,1744681889
314,Yenişehir,TR,40.2644,29.6531,0.03,93,0,0.0,1744681890
315,Labrador City,CA,52.9463,-66.9114,-0.05,69,0,2.06,1744681890
316,Manokwari,ID,-0.8667,134.0833,29.0,68,70,2.25,1744681890
317,Ilhabela,BR,-23.7781,-45.3581,22.36,86,50,2.06,1744681890
318,Pariaman,ID,-0.619,100.12,28.03,81,100,1.05,1744681890
319,Nizhnevartovsk,RU,60.9344,76.5531,-4.99,63,20,3.0,1744681891
320,Bonthe,SL,7.5264,-12.505,25.74,89,99,2.63,1744681891
321,Saint-Philippe,RE,-21.3585,55.7679,25.99,75,42,4.11,1744681891
322,Vilyuysk,RU,63.7553,121.6247,-5.55,80,7,1.94,1744681891
323,Kyaikkami,MM,16.08,97.5675,28.9,74,100,3.23,1744681891
324,Río Gallegos,AR,-51.6226,-69.2181,7.03,87,0,7.2,1744681891
325,Kurumkan,RU,54.3,110.3,12.12,58,64,1.08,1744681891
326,Tulagi,SB,-9.0996,160.1476,28.27,76,73,6.38,1744681892
327,Zhangjiakou Shi Xuanhua Qu,CN,40.6103,115.0447,19.17,21,16,2.14,1744681892
328,Al ‘Arīsh,EG,31.1316,33.7984,14.1,77,40,1.54,1744681892
329,Cologne,DE,50.9333,6.95,11.65,72,0,1.54,1744681892
330,Minas de Marcona,PE,-15.2119,-75.1103,14.36,88,89,6.93,1744681892
331,Yangambi,CD,0.8102,24.4336,21.61,90,70,0.97,1744681893
332,Ahmednagar,IN,19.0833,74.7333,27.12,30,0,6.6,1744681893
333,Porto-Novo,BJ,6.4965,2.6036,27.74,82,100,3.37,1744681893
334,East London,ZA,-33.0153,27.9116,15.73,69,100,4.62,1744681893
335,Gadzhiyevo,RU,69.2551,33.3362,-0.41,97,100,9.64,1744681893
336,Tual,ID,-5.6667,132.75,28.51,76,80,3.51,1744681893
337,Argostoli,GR,38.1811,20.489,14.3,51,100,1.58,1744681894
338,Kucha,CN,41.7278,82.9364,18.9,20,100,2.1,1744681954
339,Naftalan,AZ,40.5067,46.825,9.5,89,100,7.13,1744681954
340,Minot,US,48.2325,-101.2963,9.06,36,20,10.8,1744681954
341,As Sulayyil,SA,20.4607,45.5779,27.12,12,59,3.38,1744681954
342,Türkmenbaşy,TM,40.0222,52.9552,11.43,93,0,2.06,1744681954
343,Kütahya,TR,39.4242,29.9833,-1.67,63,9,0.15,1744681954
344,Fortuna,US,40.5982,-124.1573,14.99,88,0,2.57,1744681955
345,Samcheok,KR,37.4406,129.1708,10.88,46,0,3.78,1744681955
346,Port Lincoln,AU,-34.7333,135.8667,26.94,48,100,5.63,1744681955
347,Phumĭ Véal Srê,KH,10.9808,104.7783,29.45,72,100,2.33,1744681955
348,Kyelang,IN,32.5833,77.0333,-2.62,38,1,3.98,1744681955
349,Loa Janan,ID,-0.583,117.095,27.99,93,100,1.29,1744681955
350,Black River,JM,18.0264,-77.8487,26.0,84,40,2.2,1744681956
351,Pierre,US,44.3683,-100.351,7.51,52,0,7.2,1744681956
352,Gijang,KR,35.2442,129.2139,10.85,42,2,6.28,1744681956
353,Bratsk,RU,56.1325,101.6142,11.27,74,100,8.82,1744681956
354,Garça,BR,-22.2106,-49.6561,22.62,77,62,3.64,1744681956
355,Ketchikan,US,55.3422,-131.6461,9.26,56,20,0.0,1744681956
356,Darnah,LY,32.767,22.6367,16.54,58,100,3.62,1744681957
357,Sanghar,PK,26.0466,68.9481,29.51,40,0,3.0,1744681957
358,Rémire-Montjoly,GF,4.9167,-52.2667,26.02,94,75,2.57,1744681957
359,Holualoa,US,19.6228,-155.9522,23.08,79,34,0.45,1744681957
360,Tofol,FM,5.3248,163.0078,29.88,74,75,6.17,1744681957
361,Kailua-Kona,US,19.6406,-155.9956,25.15,80,24,0.45,1744681957
362,Springbok,ZA,-29.6643,17.8865,11.09,54,0,2.86,1744681958
363,Rio Grande,BR,-32.035,-52.0986,16.68,72,71,3.49,1744681958
364,Banska Bystrica,SK,48.5,19.5,10.79,89,100,2.48,1744681958
365,Hithadhoo,MV,-0.6,73.0833,29.09,69,100,7.06,1744681958
366,Valentine,US,42.8728,-100.551,7.02,45,0,6.69,1744681958
367,Camocim,BR,-2.9022,-40.8411,25.55,86,36,3.36,1744681958
368,Hacienda Huancane,PE,-15.8222,-70.8856,3.58,70,100,2.58,1744681958
369,Mili,MH,6.0815,171.735,27.56,80,100,9.48,1744681959
370,Nurmo,FI,62.8287,22.9099,3.52,91,0,2.57,1744681959
371,Bir Hadaj,IL,31.0263,34.7031,12.86,77,22,4.07,1744681959
372,Longyearbyen,SJ,78.2186,15.6401,-12.09,85,20,0.51,1744681959
373,Lompoc,US,34.6391,-120.4579,15.94,73,100,5.14,1744681959
374,Sandnessjøen,NO,66.0217,12.6316,6.06,87,100,5.66,1744681959
375,Quellón,CL,-43.1167,-73.6167,9.98,93,11,3.0,1744681959
376,Bel Ombre,SC,-4.6167,55.4167,25.91,94,20,1.03,1744681960
377,Lycksele,SE,64.5954,18.6735,2.93,75,4,3.09,1744681960
378,Williamson,US,30.6502,-97.6003,27.39,47,99,0.45,1744681960
379,Singleton,AU,-32.5667,151.1833,23.29,76,98,5.43,1744681960
380,Mirny,RU,62.5353,113.9611,-3.09,81,99,4.43,1744681960
381,Karlovasi,GR,37.7903,26.7044,12.73,65,14,4.37,1744681960
382,Kuanda,RU,56.3161,116.0806,-0.24,63,8,0.84,1744681960
383,Pontianak,ID,-0.0333,109.3333,26.99,89,20,2.57,1744681961
384,Burang,CN,30.25,81.1667,-0.53,41,0,1.33,1744681961
385,Roanoke Rapids,US,36.4615,-77.6542,20.95,73,0,4.12,1744681961
386,Rantauprapat,ID,2.1,99.8333,24.26,98,100,1.22,1744681961
387,Happy Valley-Goose Bay,CA,53.3168,-60.3315,1.17,86,100,8.75,1744682021
388,Viedma,AR,-40.8135,-62.9967,11.93,83,96,3.65,1744682021
389,Souillac,MU,-20.5167,57.5167,26.21,83,40,3.09,1744682022
390,Kodinsk,RU,58.6881,99.1844,1.69,98,100,4.47,1744682022
391,San-Pédro,CI,4.7485,-6.6363,25.63,91,100,3.06,1744682022
392,Lázaro Cárdenas,MX,17.9583,-102.2,23.31,72,28,2.26,1744682022
393,Saint-Pierre,RE,-21.3393,55.4781,24.82,65,75,3.09,1744682022
394,Jumla,NP,29.2747,82.1838,10.69,72,1,1.14,1744682022
395,Chicoana,AR,-25.1009,-65.5331,16.03,77,98,1.34,1744682022
396,Habboûch,LB,33.4075,35.4828,10.62,66,0,5.59,1744682023
397,Kapaa,US,22.0752,-159.319,27.18,82,20,5.66,1744682023
398,Island Harbour,GB,50.724,-1.2758,10.55,92,100,1.34,1744682023
399,Guerrero Negro,MX,27.9769,-114.0611,16.43,77,0,6.5,1744682023
400,Tchin Tabaradèn,NE,15.8969,5.7985,25.17,7,5,5.34,1744682023
401,Lae,PG,-6.7221,146.9847,28.89,67,34,3.98,1744682023
402,Gowurdak,TM,37.8124,66.0466,24.27,42,27,1.54,1744682024
403,Mogadishu,SO,2.0371,45.3438,28.57,75,99,4.36,1744682024
404,Tangalle,LK,6.024,80.7911,26.99,80,66,2.04,1744682024
405,Coos Bay,US,43.3665,-124.2179,15.99,55,0,7.72,1744681733
406,Karratha,AU,-20.7377,116.8463,35.78,28,18,5.72,1744682024
407,Kirby Muxloe,GB,52.6334,-1.2332,9.03,82,100,1.77,1744682024
408,Emerald,AU,-23.5333,148.1667,26.3,54,0,7.63,1744682024
409,Zaragoza,ES,41.6561,-0.8773,13.25,78,40,2.06,1744682025
410,Camaná,PE,-16.6228,-72.7111,19.38,90,100,3.17,1744682025
411,Eirunepé,BR,-6.6603,-69.8736,22.14,100,100,0.91,1744682025
412,Blackfoot,US,43.1905,-112.345,14.3,27,4,2.1,1744681962
413,Cambria,US,35.5641,-121.0808,11.14,89,99,2.22,1744682025
414,Port Douglas,AU,-16.4833,145.4667,26.6,74,68,7.63,1744682025
415,Aïn Sefra,DZ,32.75,-0.5833,13.44,55,5,1.64,1744682025
416,Dêqên,CN,29.9618,90.7188,-0.11,76,97,1.54,1744682026
417,Neiafu,TO,-18.65,-173.9833,29.38,70,75,7.72,1744682026
418,Howrah,IN,22.5892,88.3103,26.0,69,20,3.6,1744682026
419,Kasane,BW,-17.8167,25.15,17.91,77,50,1.32,1744682026
420,Onega,RU,63.9061,38.1404,5.05,92,99,4.59,1744682026
421,Manta,EC,-0.95,-80.7333,25.88,83,20,2.06,1744682027
422,Silver City,US,32.7701,-108.2803,19.24,15,8,1.62,1744682027
423,Green River,US,41.5286,-109.4662,11.21,17,0,2.74,1744682027
424,Zhangjiakou,CN,40.81,114.8794,18.14,21,9,3.08,1744682027
425,Mitsamiouli,KM,-11.3847,43.2844,27.59,78,100,3.15,1744682027
426,Cabo San Lucas,MX,22.8909,-109.9124,32.17,39,100,4.63,1744681793
427,Chengde,CN,40.9725,117.9361,18.98,32,0,1.05,1744682028
428,Balsas,BR,-7.5325,-46.0356,24.62,83,24,0.87,1744682028
429,Shar,KZ,49.5886,81.0453,6.81,66,2,1.1,1744682028
430,Mozambique,MZ,-15.0342,40.7358,26.53,84,81,2.86,1744682028
431,Molchanovo,RU,57.5817,83.7692,0.15,51,82,2.72,1744682028
432,Zliten,LY,32.4674,14.5687,23.57,24,100,7.54,1744682028
433,Taoudenni,ML,22.6783,-3.9836,25.36,19,3,4.5,1744682029
434,Uglegorsk,RU,49.0833,142.0333,3.54,85,100,2.68,1744682029
435,Engenheiro Beltrão,BR,-23.7972,-52.2692,22.56,77,99,2.0,1744682089
436,Verdal,NO,63.7933,11.4817,4.08,76,98,1.82,1744682089
437,Deschutes River Woods,US,43.9915,-121.3584,15.98,37,7,0.89,1744682089
438,Portola Hills,US,33.6792,-117.6312,17.05,76,34,1.34,1744682089
439,Lepsy,KZ,46.235,78.9456,11.95,57,100,2.64,1744682089
440,Chernushka,RU,56.5072,56.0766,1.06,75,58,3.1,1744682090
441,Lā‘ie,US,21.6477,-157.9253,26.66,75,2,4.02,1744682090
442,Swakopmund,NA,-22.6833,14.5333,16.14,86,1,3.38,1744682090
443,Opuwo,NA,-18.0607,13.84,20.66,69,2,1.52,1744682090
444,Lasem,ID,-6.6922,111.4527,27.87,76,100,2.32,1744682090
445,Hede,CN,33.7681,120.2517,20.12,36,0,6.22,1744682090
446,Tottori-shi,JP,35.5,134.2333,9.04,81,75,12.86,1744682091
447,Aldan,RU,58.6031,125.3894,-5.07,78,100,4.01,1744682091
448,Mulbāgal,IN,13.1667,78.4,23.68,70,28,2.36,1744682091
449,Chui,UY,-33.6971,-53.4616,13.16,82,96,1.75,1744682091
450,Bryne,NO,58.7354,5.6477,8.86,73,20,5.14,1744682091
451,Inda Silasē,ET,14.1031,38.2829,18.52,37,2,1.39,1744682092
452,Greymouth,NZ,-42.4667,171.2,12.82,69,100,4.15,1744682092
453,San Luis Acatlan,MX,16.8167,-98.7333,23.97,48,32,1.11,1744682092
454,Bamboo Flat,IN,11.7,92.7167,29.05,84,40,1.54,1744682092
455,Fort St. John,CA,56.2499,-120.8529,10.94,46,75,9.26,1744682092
456,Tutong,BN,4.8,114.65,28.19,82,100,3.81,1744682092
457,Tazovsky,RU,67.4667,78.7,-8.88,94,100,5.1,1744682093
458,Port Saint John's,ZA,-31.6229,29.5448,18.16,84,100,3.79,1744682093
459,Mulchén,CL,-37.7167,-72.2333,8.48,99,21,1.31,1744682094
460,Bakhchisaray,UA,44.75,33.8667,3.95,61,0,2.34,1744682094
461,Palu,ID,-0.8917,119.8707,32.53,57,0,1.62,1744682094
462,San Ignacio,BZ,17.1561,-89.0714,27.08,65,0,3.09,1744682094
463,Sierra Grande,AR,-41.606,-65.3557,10.49,95,100,6.68,1744682094
464,Berlin,DE,52.5244,13.4105,14.99,71,0,5.36,1744681765
465,Fomboni,KM,-12.28,43.7425,28.49,74,100,3.26,1744682094
466,Mata-Utu,WF,-13.2816,-176.1745,28.81,74,100,4.2,1744682095
467,Franklin,US,39.9667,-83.0166,18.18,47,75,8.75,1744681947
468,Yunyang,CN,33.4474,112.7142,24.35,25,43,3.09,1744682095
469,Portland,US,45.5234,-122.6762,23.46,33,4,0.89,1744681756
470,Barcelos,PT,41.5388,-8.6151,8.52,90,86,3.52,1744682095
471,Amga,RU,60.8953,131.9608,-3.21,71,100,3.92,1744682095
472,Thai Binh,VN,20.45,106.3333,25.47,58,100,2.02,1744682095
473,Babu,CN,24.4167,111.5167,26.65,42,100,0.31,1744682096
474,Bani Walid,LY,31.7566,13.9942,23.43,25,73,5.01,1744682096
475,Kindu,CD,-2.95,25.95,20.67,94,20,0.86,1744682096
476,Tromsø,NO,69.6496,18.957,-0.99,93,100,2.57,1744682096
477,Barra,BR,-11.0894,-43.1417,25.93,62,3,1.78,1744682096
478,Plover,US,44.4564,-89.544,8.32,60,100,8.49,1744682096
479,Nuuk,GL,64.1835,-51.7216,-3.66,86,100,1.03,1744682096
480,Sibiti,CG,-3.6819,13.3499,20.62,99,100,1.61,1744682097
481,Pathein,MM,16.7833,94.7333,30.41,62,86,1.37,1744682157
482,Isiro,CD,2.7739,27.616,18.97,91,32,1.25,1744682157
483,Alto Barinas,VE,8.5931,-70.2261,29.17,52,12,2.65,1744682157
484,Santana,BR,-0.0583,-51.1817,25.1,94,75,2.57,1744682157
485,San Patricio,US,28.017,-97.5169,23.97,79,12,5.77,1744682157
486,Morant Bay,JM,17.8815,-76.4093,26.41,88,20,5.51,1744682158
487,Padre Paraíso,BR,-17.0742,-41.4844,21.0,71,93,0.26,1744682158
488,Lardjem,DZ,35.748,1.5481,10.6,86,59,1.59,1744682158
489,Noosa,AU,-26.3833,153.15,24.29,60,3,10.51,1744682158
490,Taro,ID,-8.3862,115.28,27.25,55,39,1.07,1744682158
491,Piti Village,GU,13.4626,144.6933,30.73,78,40,7.72,1744682158
492,Antofagasta,CL,-23.65,-70.4,16.6,84,73,2.46,1744682159
493,Nicoya,CR,10.1483,-85.452,27.75,74,35,5.1,1744682159
494,Trairi,BR,-3.2778,-39.2689,26.5,84,2,2.26,1744682159
495,Isangel,VU,-19.55,169.2667,28.06,94,100,3.6,1744682159
496,Dudinka,RU,69.4058,86.1778,-16.56,97,54,2.98,1744682159
497,Gonābād,IR,34.3529,58.6837,20.99,47,75,1.04,1744682160
498,Avenal,US,36.0041,-120.129,12.33,61,97,5.53,1744682160
499,Sosnovoborsk,RU,56.1325,93.3589,2.97,88,100,6.77,1744682160
500,Terrace,CA,54.5163,-128.6035,8.95,61,40,7.72,1744682160
501,Myitkyina,MM,25.3833,97.4,26.12,62,100,1.44,1744682160
502,Fortaleza,BR,-3.7227,-38.5247,28.07,78,40,2.06,1744682160
503,Sollefteå,SE,63.1667,17.2667,-1.08,83,17,1.36,1744682161
504,Saint-Leu,RE,-21.15,55.2833,24.48,74,7,1.03,1744682161
505,Utete,TZ,-7.986,38.758,22.42,97,100,1.26,1744682161
506,Nāttarasankottai,IN,9.8667,78.5667,29.12,71,28,2.04,1744682161
507,Charters Towers,AU,-20.1,146.2667,26.98,50,13,5.66,1744682161
508,Guiuan,PH,11.0333,125.7247,28.2,79,62,3.45,1744682162
509,La Punta,AR,-33.1837,-66.3127,16.23,73,91,1.56,1744682162
510,Sauðarkrokur,IS,65.7461,-19.6394,0.22,95,100,0.85,1744682162
511,Maracás,BR,-13.4411,-40.4308,18.82,96,1,2.31,1744682162
512,Dapa,PH,9.7594,126.0531,27.99,79,15,3.48,1744682162
513,Newman,US,37.3138,-121.0208,23.92,59,100,3.1,1744682162
514,Trostyanets',UA,50.4784,34.963,6.5,66,5,2.37,1744682162
515,Chifeng,CN,42.2683,118.9636,16.87,33,2,1.7,1744682163
516,Esim,GH,4.8699,-2.2405,26.67,88,91,3.05,1744682163
517,Ingeniero Jacobacci,AR,-41.3427,-69.5448,7.29,72,100,3.11,1744682163
518,Masterton,NZ,-40.9597,175.6575,13.97,58,100,3.5,1744682163
519,Alta Sierra,US,35.7291,-118.5495,7.74,44,100,0.98,1744682163
520,Tādepallegūdem,IN,16.8333,81.5,27.64,73,4,2.33,1744682163
521,Weleri,ID,-6.9713,110.0666,29.95,73,100,0.95,1744682163
522,Ust-Tsilma,RU,65.441,52.1498,2.17,100,100,4.61,1744682164
523,Zafar,UZ,40.9833,68.9,17.92,67,28,0.3,1744682164
524,Jining,CN,35.405,116.5814,22.68,28,2,2.76,1744682164
525,Manicoré,BR,-5.8092,-61.3003,23.62,98,85,1.23,1744682164
526,Andovoranto,MG,-18.95,49.1,23.78,89,60,2.08,1744682164
527,Salair,RU,54.2312,85.7972,4.31,80,100,3.13,1744682164
528,Arraial do Cabo,BR,-22.9661,-42.0278,22.98,88,20,2.57,1744682165
529,Cantley,GB,53.5,-1.05,8.88,87,100,1.35,1744682225
530,Larache,MA,35.1932,-6.1557,15.95,86,100,8.39,1744682225
531,San Rafael,AR,-34.6177,-68.3301,17.11,67,10,2.55,1744682225
532,Mulvane,US,37.4745,-97.2439,15.3,35,74,0.45,1744682225
533,Sungai Penuh,ID,-2.0833,101.3833,21.83,80,100,1.17,1744682225
534,Horta,PT,38.5333,-28.6333,12.23,81,15,1.79,1744682226
535,Prince Rupert,CA,54.3161,-130.3201,8.05,59,0,8.75,1744682226
536,Mthatha,ZA,-31.5889,28.7844,12.55,91,100,0.94,1744682226
537,Kenai,US,60.5544,-151.2583,7.79,44,0,5.66,1744682226
538,Pangoa,PE,-12.1167,-73.0,20.08,98,60,0.95,1744682227
539,Zahedan,IR,29.4963,60.8629,20.95,26,0,2.06,1744682227
540,Oum el Bouaghi,DZ,35.8754,7.1135,9.28,87,99,0.66,1744682227
541,Cruz Alta,BR,-28.6386,-53.6064,13.98,84,0,4.43,1744682227
542,Quartier Militaire,MU,-20.2439,57.5892,23.4,85,42,3.61,1744682227
543,Riverside,US,33.7333,-116.0508,26.04,21,100,1.51,1744681928
544,Nadi,FJ,-17.8,177.4167,27.0,78,75,3.09,1744682227
545,Hawera,NZ,-39.5917,174.2833,18.02,55,64,8.37,1744682228
546,Margate,GB,51.3813,1.3862,10.49,88,100,6.22,1744682228
547,Weiser,US,44.251,-116.9693,20.11,35,7,2.41,1744682228
548,Kismayo,SO,-0.3582,42.5454,27.44,76,97,3.74,1744682228
549,São Geraldo do Araguaia,BR,-6.4006,-48.555,23.67,97,100,1.21,1744682228
550,Thunder Bay,CA,48.4001,-89.3168,1.99,86,100,6.17,1744682229
551,Acapulco de Juárez,MX,16.8634,-99.8901,27.9,57,40,3.6,1744682173
552,Ndélé,CF,8.4109,20.6473,25.65,54,54,1.05,1744682229
553,Leh,IN,34.1667,77.5833,-6.07,55,0,1.7,1744682229
554,Malanje,AO,-9.5402,16.341,17.4,96,99,0.93,1744682229
555,San Juan del Sur,NI,11.2529,-85.8705,28.15,76,15,9.79,1744682229
556,Morehead City,US,34.7229,-76.726,20.0,78,0,7.72,1744682230
557,Trinity Beach,AU,-16.7888,145.6968,28.94,65,20,9.26,1744682230
558,Topki,RU,55.2769,85.6163,2.69,73,100,1.8,1744682230
559,Kavieng,PG,-2.5744,150.7967,29.28,67,100,3.59,1744682230
560,Sydney,AU,-33.8679,151.2073,22.4,59,75,9.26,1744682230
561,Ust'-Kut,RU,56.7938,105.7672,8.82,95,100,2.02,1744682231
562,Sisimiut,GL,66.9395,-53.6735,-7.93,82,94,4.58,1744682231
563,Mohr,DE,54.3528,9.7167,8.97,84,30,3.6,1744682231
564,Sinop Province,TR,41.7711,34.8709,3.97,92,44,2.27,1744682231
565,Palmer,US,42.1584,-72.3287,11.58,48,86,2.1,1744682231
566,Philadelphia,US,39.9523,-75.1638,16.72,59,0,0.0,1744682040
567,La Libertad,EC,-2.2333,-80.9,25.51,83,55,2.68,1744682231
568,Maumere,ID,-8.6199,122.2111,29.12,73,99,1.07,1744682232
569,Spas-Demensk,RU,54.4122,34.0226,6.83,83,100,4.16,1744682232
570,Boma,NG,11.7117,4.2472,29.9,9,43,3.49,1744682232
571,Saldanha,ZA,-33.0117,17.9442,15.26,87,0,7.36,1744682232
572,San Felipe,VE,10.3399,-68.7425,22.39,90,14,2.62,1744682232
573,Barrie,CA,44.4001,-79.6663,12.16,72,38,3.09,1744682232
574,Oguta,NG,5.7089,6.8103,25.23,92,100,1.47,1744682232
575,Macao,MO,22.2006,113.5461,23.85,73,83,2.57,1744682293
